{
    "extents": [{
            "title": "Andalucía",
            "type": "general",
            "lonmin": -7.53041,
            "latmin": 35.69869,
            "lonmax": -1.50326,
            "latmax": 38.78516
        }, {
            "title": "Almería (provincia)",
            "type": "prov",
            "lonmin": -3.14019,
            "latmin": 36.68039,
            "lonmax": -1.63029,
            "latmax": 37.91657
        }, {
            "title": "Cádiz (provincia)",
            "type": "prov",
            "lonmin": -6.44317,
            "latmin": 35.99999,
            "lonmax": -5.08677,
            "latmax": 37.05245
        }, {
            "title": "Córdoba (provincia)",
            "type": "prov",
            "lonmin": -5.58592,
            "latmin": 37.18433,
            "lonmax": -4.00082,
            "latmax": 38.72908
        }, {
            "title": "Granada (provincia)",
            "type": "prov",
            "lonmin": -4.32762,
            "latmin": 36.69354,
            "lonmax": -2.20766,
            "latmax": 38.08410
        }, {
            "title": "Huelva (provincia)",
            "type": "prov",
            "lonmin": -7.52288,
            "latmin": 36.79498,
            "lonmax": -6.12156,
            "latmax": 38.20832
        }, {
            "title": "Jaén (provincia)",
            "type": "prov",
            "lonmin": -4.28764,
            "latmin": 37.37828,
            "lonmax": -2.43539,
            "latmax": 38.53302
        }, {
            "title": "Málaga (provincia)",
            "type": "prov",
            "lonmin": -5.61178,
            "latmin": 36.31016,
            "lonmax": -3.76597,
            "latmax": 37.28240
        }, {
            "title": "Sevilla (provincia)",
            "type": "prov",
            "lonmin": -6.53851,
            "latmin": 36.84219,
            "lonmax": -4.65335,
            "latmax": 38.19742
        }, {
            "title": "Almería (Almería)",
            "type": "ttmm",
            "lonmin": -2.48793,
            "latmin": 36.82256,
            "lonmax": -2.4288,
            "latmax": 36.86978
        }, {
            "title": "Abla (Almería)",
            "type": "ttmm",
            "lonmin": -2.78296,
            "latmin": 37.13953,
            "lonmax": -2.77164,
            "latmax": 37.14558
        }, {
            "title": "Abrucena (Almería)",
            "type": "ttmm",
            "lonmin": -2.80271,
            "latmin": 37.12922,
            "lonmax": -2.78917,
            "latmax": 37.13737
        }, {
            "title": "Adra (Almería)",
            "type": "ttmm",
            "lonmin": -3.03511,
            "latmin": 36.74303,
            "lonmax": -3.00291,
            "latmax": 36.75819
        }, {
            "title": "Albánchez (Almería)",
            "type": "ttmm",
            "lonmin": -2.18359,
            "latmin": 37.28263,
            "lonmax": -2.17342,
            "latmax": 37.29336
        }, {
            "title": "Alboloduy (Almería)",
            "type": "ttmm",
            "lonmin": -2.62336,
            "latmin": 37.03149,
            "lonmax": -2.61888,
            "latmax": 37.03502
        }, {
            "title": "Albox (Almería)",
            "type": "ttmm",
            "lonmin": -2.15411,
            "latmin": 37.37556,
            "lonmax": -2.12879,
            "latmax": 37.39389
        }, {
            "title": "Alcóntar (Almería)",
            "type": "ttmm",
            "lonmin": -2.60043,
            "latmin": 37.33371,
            "lonmax": -2.59592,
            "latmax": 37.33734
        }, {
            "title": "Alcolea (Almería)",
            "type": "ttmm",
            "lonmin": -2.96376,
            "latmin": 36.96901,
            "lonmax": -2.95811,
            "latmax": 36.97676
        }, {
            "title": "Alcudia de Monteagud (Almería)",
            "type": "ttmm",
            "lonmin": -2.26778,
            "latmin": 37.23436,
            "lonmax": -2.26427,
            "latmax": 37.2368
        }, {
            "title": "Alhabia (Almería)",
            "type": "ttmm",
            "lonmin": -2.58934,
            "latmin": 36.98832,
            "lonmax": -2.58331,
            "latmax": 36.9933
        }, {
            "title": "Alhama de Almería (Almería)",
            "type": "ttmm",
            "lonmin": -2.57757,
            "latmin": 36.95357,
            "lonmax": -2.56109,
            "latmax": 36.96084
        }, {
            "title": "Alicún (Almería)",
            "type": "ttmm",
            "lonmin": -2.60317,
            "latmin": 36.96495,
            "lonmax": -2.60077,
            "latmax": 36.96727
        }, {
            "title": "Almócita (Almería)",
            "type": "ttmm",
            "lonmin": -2.79123,
            "latmin": 37.00168,
            "lonmax": -2.78784,
            "latmax": 37.00468
        }, {
            "title": "Alsodux (Almería)",
            "type": "ttmm",
            "lonmin": -2.59535,
            "latmin": 37.00118,
            "lonmax": -2.5935,
            "latmax": 37.00364
        }, {
            "title": "Antas (Almería)",
            "type": "ttmm",
            "lonmin": -1.92144,
            "latmin": 37.24182,
            "lonmax": -1.91475,
            "latmax": 37.24887
        }, {
            "title": "Arboleas (Almería)",
            "type": "ttmm",
            "lonmin": -2.07608,
            "latmin": 37.34731,
            "lonmax": -2.06987,
            "latmax": 37.35527
        }, {
            "title": "Armuña de Almanzora (Almería)",
            "type": "ttmm",
            "lonmin": -2.4138,
            "latmin": 37.34816,
            "lonmax": -2.4092,
            "latmax": 37.35177
        }, {
            "title": "Bédar (Almería)",
            "type": "ttmm",
            "lonmin": -1.98412,
            "latmin": 37.1887,
            "lonmax": -1.97811,
            "latmax": 37.19329
        }, {
            "title": "Bacares (Almería)",
            "type": "ttmm",
            "lonmin": -2.45506,
            "latmin": 37.25907,
            "lonmax": -2.45032,
            "latmax": 37.26214
        }, {
            "title": "Bayárcal (Almería)",
            "type": "ttmm",
            "lonmin": -2.99721,
            "latmin": 37.02816,
            "lonmax": -2.99407,
            "latmax": 37.03232
        }, {
            "title": "Bayarque (Almería)",
            "type": "ttmm",
            "lonmin": -2.43899,
            "latmin": 37.32844,
            "lonmax": -2.43257,
            "latmax": 37.33224
        }, {
            "title": "Beires (Almería)",
            "type": "ttmm",
            "lonmin": -2.79254,
            "latmin": 37.01091,
            "lonmax": -2.78826,
            "latmax": 37.0137
        }, {
            "title": "Benahadux (Almería)",
            "type": "ttmm",
            "lonmin": -2.46714,
            "latmin": 36.92041,
            "lonmax": -2.45513,
            "latmax": 36.93282
        }, {
            "title": "Benitagla (Almería)",
            "type": "ttmm",
            "lonmin": -2.24024,
            "latmin": 37.23055,
            "lonmax": -2.23727,
            "latmax": 37.23226
        }, {
            "title": "Benizalón (Almería)",
            "type": "ttmm",
            "lonmin": -2.24333,
            "latmin": 37.21095,
            "lonmax": -2.23945,
            "latmax": 37.213
        }, {
            "title": "Bentarique (Almería)",
            "type": "ttmm",
            "lonmin": -2.62198,
            "latmin": 36.98436,
            "lonmax": -2.61829,
            "latmax": 36.98927
        }, {
            "title": "Berja (Almería)",
            "type": "ttmm",
            "lonmin": -2.96262,
            "latmin": 36.83601,
            "lonmax": -2.93201,
            "latmax": 36.85625
        }, {
            "title": "Cóbdar (Almería)",
            "type": "ttmm",
            "lonmin": -2.21218,
            "latmin": 37.25942,
            "lonmax": -2.20952,
            "latmax": 37.26331
        }, {
            "title": "Canjáyar (Almería)",
            "type": "ttmm",
            "lonmin": -2.74311,
            "latmin": 37.00294,
            "lonmax": -2.73562,
            "latmax": 37.01363
        }, {
            "title": "Cantoria (Almería)",
            "type": "ttmm",
            "lonmin": -2.19734,
            "latmin": 37.34908,
            "lonmax": -2.18243,
            "latmax": 37.3557
        }, {
            "title": "Carboneras (Almería)",
            "type": "ttmm",
            "lonmin": -1.9037,
            "latmin": 36.98662,
            "lonmax": -1.88566,
            "latmax": 37.01128
        }, {
            "title": "Castro de Filabres (Almería)",
            "type": "ttmm",
            "lonmin": -2.4414,
            "latmin": 37.18274,
            "lonmax": -2.43877,
            "latmax": 37.18593
        }, {
            "title": "Chercos Nuevo (Almería)",
            "type": "ttmm",
            "lonmin": -2.25906,
            "latmin": 37.26569,
            "lonmax": -2.25539,
            "latmax": 37.26842
        }, {
            "title": "Chirivel (Almería)",
            "type": "ttmm",
            "lonmin": -2.27697,
            "latmin": 37.59373,
            "lonmax": -2.2591,
            "latmax": 37.60099
        }, {
            "title": "Cuevas del Almanzora (Almería)",
            "type": "ttmm",
            "lonmin": -1.88691,
            "latmin": 37.28539,
            "lonmax": -1.87234,
            "latmax": 37.29995
        }, {
            "title": "Dalías (Almería)",
            "type": "ttmm",
            "lonmin": -2.87589,
            "latmin": 36.81353,
            "lonmax": -2.86627,
            "latmax": 36.83106
        }, {
            "title": "Doña María (Almería)",
            "type": "ttmm",
            "lonmin": -2.71443,
            "latmin": 37.13398,
            "lonmax": -2.7103,
            "latmax": 37.13629
        }, {
            "title": "El Ejido (Almería)",
            "type": "ttmm",
            "lonmin": -2.83009,
            "latmin": 36.76147,
            "lonmax": -2.80074,
            "latmax": 36.78405
        }, {
            "title": "Enix (Almería)",
            "type": "ttmm",
            "lonmin": -2.609,
            "latmin": 36.87548,
            "lonmax": -2.59999,
            "latmax": 36.87847
        }, {
            "title": "Felix (Almería)",
            "type": "ttmm",
            "lonmin": -2.6625,
            "latmin": 36.86644,
            "lonmax": -2.65281,
            "latmax": 36.87226
        }, {
            "title": "Fiñana (Almería)",
            "type": "ttmm",
            "lonmin": -2.85182,
            "latmin": 37.16462,
            "lonmax": -2.83236,
            "latmax": 37.1752
        }, {
            "title": "Fines (Almería)",
            "type": "ttmm",
            "lonmin": -2.2674,
            "latmin": 37.35728,
            "lonmax": -2.25548,
            "latmax": 37.36345
        }, {
            "title": "Fondón (Almería)",
            "type": "ttmm",
            "lonmin": -2.86323,
            "latmin": 36.97862,
            "lonmax": -2.85099,
            "latmax": 36.98455
        }, {
            "title": "Gérgal (Almería)",
            "type": "ttmm",
            "lonmin": -2.54711,
            "latmin": 37.11501,
            "lonmax": -2.53252,
            "latmax": 37.12199
        }, {
            "title": "Gador (Almería)",
            "type": "ttmm",
            "lonmin": -2.49683,
            "latmin": 36.94918,
            "lonmax": -2.48322,
            "latmax": 36.95604
        }, {
            "title": "Garrucha (Almería)",
            "type": "ttmm",
            "lonmin": -1.82774,
            "latmin": 37.17093,
            "lonmax": -1.81699,
            "latmax": 37.1896
        }, {
            "title": "Huércal de Almería (Almería)",
            "type": "ttmm",
            "lonmin": -2.45416,
            "latmin": 36.87371,
            "lonmax": -2.4298,
            "latmax": 36.88926
        }, {
            "title": "Huércal-Overa (Almería)",
            "type": "ttmm",
            "lonmin": -1.9586,
            "latmin": 37.38363,
            "lonmax": -1.92599,
            "latmax": 37.41182
        }, {
            "title": "Huecija (Almería)",
            "type": "ttmm",
            "lonmin": -2.61217,
            "latmin": 36.96596,
            "lonmax": -2.60675,
            "latmax": 36.96925
        }, {
            "title": "Illar (Almería)",
            "type": "ttmm",
            "lonmin": -2.64278,
            "latmin": 36.98328,
            "lonmax": -2.63657,
            "latmax": 36.98872
        }, {
            "title": "Instinción (Almería)",
            "type": "ttmm",
            "lonmin": -2.6642,
            "latmin": 36.99112,
            "lonmax": -2.65583,
            "latmax": 36.99475
        }, {
            "title": "Líjar (Almería)",
            "type": "ttmm",
            "lonmin": -2.22133,
            "latmin": 37.29373,
            "lonmax": -2.2151,
            "latmax": 37.2964
        }, {
            "title": "Lúcar (Almería)",
            "type": "ttmm",
            "lonmin": -2.42908,
            "latmin": 37.3977,
            "lonmax": -2.42154,
            "latmax": 37.40277
        }, {
            "title": "Laroya (Almería)",
            "type": "ttmm",
            "lonmin": -2.33383,
            "latmin": 37.29507,
            "lonmax": -2.32864,
            "latmax": 37.29733
        }, {
            "title": "Laujar de Andarax (Almería)",
            "type": "ttmm",
            "lonmin": -2.90611,
            "latmin": 36.9917,
            "lonmax": -2.88585,
            "latmax": 36.9978
        }, {
            "title": "Los Gallardos (Almería)",
            "type": "ttmm",
            "lonmin": -1.94443,
            "latmin": 37.16549,
            "lonmax": -1.93393,
            "latmax": 37.17121
        }, {
            "title": "Lubrín (Almería)",
            "type": "ttmm",
            "lonmin": -2.07258,
            "latmin": 37.21173,
            "lonmax": -2.06449,
            "latmax": 37.21784
        }, {
            "title": "Lucainena de las Torres (Almería)",
            "type": "ttmm",
            "lonmin": -2.20332,
            "latmin": 37.03891,
            "lonmax": -2.19591,
            "latmax": 37.04535
        }, {
            "title": "Macael (Almería)",
            "type": "ttmm",
            "lonmin": -2.30897,
            "latmin": 37.32617,
            "lonmax": -2.2965,
            "latmax": 37.33982
        }, {
            "title": "María (Almería)",
            "type": "ttmm",
            "lonmin": -2.1704,
            "latmin": 37.70609,
            "lonmax": -2.15878,
            "latmax": 37.71367
        }, {
            "title": "Mojácar (Almería)",
            "type": "ttmm",
            "lonmin": -1.85478,
            "latmin": 37.13771,
            "lonmax": -1.84285,
            "latmax": 37.14473
        }, {
            "title": "Mojonera (Almería)",
            "type": "ttmm",
            "lonmin": -2.69251,
            "latmin": 36.74787,
            "lonmax": -2.67478,
            "latmax": 36.75856
        }, {
            "title": "Níjar (Almería)",
            "type": "ttmm",
            "lonmin": -2.21001,
            "latmin": 36.95606,
            "lonmax": -2.19626,
            "latmax": 36.96916
        }, {
            "title": "Nacimiento (Almería)",
            "type": "ttmm",
            "lonmin": -2.65133,
            "latmin": 37.10443,
            "lonmax": -2.64661,
            "latmax": 37.10759
        }, {
            "title": "Ohanes (Almería)",
            "type": "ttmm",
            "lonmin": -2.74903,
            "latmin": 37.03612,
            "lonmax": -2.74296,
            "latmax": 37.04105
        }, {
            "title": "Olula de Castro (Almería)",
            "type": "ttmm",
            "lonmin": -2.47725,
            "latmin": 37.17332,
            "lonmax": -2.47285,
            "latmax": 37.17654
        }, {
            "title": "Olula del Río (Almería)",
            "type": "ttmm",
            "lonmin": -2.3097,
            "latmin": 37.34891,
            "lonmax": -2.28525,
            "latmax": 37.3641
        }, {
            "title": "Oria (Almería)",
            "type": "ttmm",
            "lonmin": -2.29827,
            "latmin": 37.48006,
            "lonmax": -2.28054,
            "latmax": 37.48789
        }, {
            "title": "Padules (Almería)",
            "type": "ttmm",
            "lonmin": -2.77778,
            "latmin": 36.9958,
            "lonmax": -2.77189,
            "latmax": 37.00167
        }, {
            "title": "Partaloa (Almería)",
            "type": "ttmm",
            "lonmin": -2.22776,
            "latmin": 37.40496,
            "lonmax": -2.22366,
            "latmax": 37.40989
        }, {
            "title": "Paterna del Río (Almería)",
            "type": "ttmm",
            "lonmin": -2.95546,
            "latmin": 37.01912,
            "lonmax": -2.95132,
            "latmax": 37.02557
        }, {
            "title": "Pechina (Almería)",
            "type": "ttmm",
            "lonmin": -2.4449,
            "latmin": 36.89556,
            "lonmax": -2.42059,
            "latmax": 36.92235
        }, {
            "title": "Pulpí (Almería)",
            "type": "ttmm",
            "lonmin": -1.75744,
            "latmin": 37.39225,
            "lonmax": -1.74215,
            "latmax": 37.41865
        }, {
            "title": "Purchena (Almería)",
            "type": "ttmm",
            "lonmin": -2.3667,
            "latmin": 37.34256,
            "lonmax": -2.35695,
            "latmax": 37.34918
        }, {
            "title": "Rágol (Almería)",
            "type": "ttmm",
            "lonmin": -2.68438,
            "latmin": 36.99439,
            "lonmax": -2.67793,
            "latmax": 36.99622
        }, {
            "title": "Rioja (Almería)",
            "type": "ttmm",
            "lonmin": -2.47349,
            "latmin": 36.94061,
            "lonmax": -2.45843,
            "latmax": 36.95196
        }, {
            "title": "Roquetas de Mar (Almería)",
            "type": "ttmm",
            "lonmin": -2.63711,
            "latmin": 36.74733,
            "lonmax": -2.59956,
            "latmax": 36.77874
        }, {
            "title": "Santa Cruz (Almería)",
            "type": "ttmm",
            "lonmin": -2.6045,
            "latmin": 37.01505,
            "lonmax": -2.60148,
            "latmax": 37.01892
        }, {
            "title": "Santa Fe de Mondujar (Almería)",
            "type": "ttmm",
            "lonmin": -2.53462,
            "latmin": 36.97231,
            "lonmax": -2.52933,
            "latmax": 36.97595
        }, {
            "title": "Senes (Almería)",
            "type": "ttmm",
            "lonmin": -2.34811,
            "latmin": 37.20246,
            "lonmax": -2.34264,
            "latmax": 37.20558
        }, {
            "title": "Serón (Almería)",
            "type": "ttmm",
            "lonmin": -2.5139,
            "latmin": 37.3408,
            "lonmax": -2.50126,
            "latmax": 37.34835
        }, {
            "title": "Sierro (Almería)",
            "type": "ttmm",
            "lonmin": -2.40113,
            "latmin": 37.31981,
            "lonmax": -2.39729,
            "latmax": 37.3235
        }, {
            "title": "Somontin (Almería)",
            "type": "ttmm",
            "lonmin": -2.39214,
            "latmin": 37.39073,
            "lonmax": -2.38497,
            "latmax": 37.39434
        }, {
            "title": "Sorbas (Almería)",
            "type": "ttmm",
            "lonmin": -2.13322,
            "latmin": 37.09537,
            "lonmax": -2.1189,
            "latmax": 37.104
        }, {
            "title": "Sufli (Almería)",
            "type": "ttmm",
            "lonmin": -2.39116,
            "latmin": 37.33719,
            "lonmax": -2.38531,
            "latmax": 37.34047
        }, {
            "title": "Tíjola (Almería)",
            "type": "ttmm",
            "lonmin": -2.44331,
            "latmin": 37.34197,
            "lonmax": -2.42941,
            "latmax": 37.34909
        }, {
            "title": "Tabernas (Almería)",
            "type": "ttmm",
            "lonmin": -2.39879,
            "latmin": 37.04754,
            "lonmax": -2.38448,
            "latmax": 37.0597
        }, {
            "title": "Taberno (Almería)",
            "type": "ttmm",
            "lonmin": -2.08266,
            "latmin": 37.46483,
            "lonmax": -2.07334,
            "latmax": 37.47233
        }, {
            "title": "Tahal (Almería)",
            "type": "ttmm",
            "lonmin": -2.28764,
            "latmin": 37.22664,
            "lonmax": -2.28239,
            "latmax": 37.22947
        }, {
            "title": "Terque (Almería)",
            "type": "ttmm",
            "lonmin": -2.59903,
            "latmin": 36.98288,
            "lonmax": -2.59294,
            "latmax": 36.98692
        }, {
            "title": "Turre (Almería)",
            "type": "ttmm",
            "lonmin": -1.9036,
            "latmin": 37.1466,
            "lonmax": -1.88721,
            "latmax": 37.15488
        }, {
            "title": "Turrillas (Almería)",
            "type": "ttmm",
            "lonmin": -2.2668,
            "latmin": 37.02807,
            "lonmax": -2.26285,
            "latmax": 37.03067
        }, {
            "title": "Uleila del Campo (Almería)",
            "type": "ttmm",
            "lonmin": -2.20911,
            "latmin": 37.18049,
            "lonmax": -2.20031,
            "latmax": 37.18769
        }, {
            "title": "Urracal (Almería)",
            "type": "ttmm",
            "lonmin": -2.36621,
            "latmin": 37.39471,
            "lonmax": -2.36339,
            "latmax": 37.39861
        }, {
            "title": "Vélez Blanco (Almería)",
            "type": "ttmm",
            "lonmin": -2.10072,
            "latmin": 37.68648,
            "lonmax": -2.09186,
            "latmax": 37.69711
        }, {
            "title": "Vélez Rubio (Almería)",
            "type": "ttmm",
            "lonmin": -2.09043,
            "latmin": 37.64388,
            "lonmax": -2.06379,
            "latmax": 37.6558
        }, {
            "title": "Velefique (Almería)",
            "type": "ttmm",
            "lonmin": -2.4057,
            "latmin": 37.19107,
            "lonmax": -2.39987,
            "latmax": 37.19592
        }, {
            "title": "Vera (Almería)",
            "type": "ttmm",
            "lonmin": -1.87818,
            "latmin": 37.23807,
            "lonmax": -1.85642,
            "latmax": 37.25434
        }, {
            "title": "Viator (Almería)",
            "type": "ttmm",
            "lonmin": -2.42954,
            "latmin": 36.87439,
            "lonmax": -2.41802,
            "latmax": 36.89296
        }, {
            "title": "Vicar (Almería)",
            "type": "ttmm",
            "lonmin": -2.64478,
            "latmin": 36.83035,
            "lonmax": -2.6396,
            "latmax": 36.83289
        }, {
            "title": "Zurgena (Almería)",
            "type": "ttmm",
            "lonmin": -2.04241,
            "latmin": 37.33897,
            "lonmax": -2.0379,
            "latmax": 37.34524
        }, {
            "title": "Cádiz (Cádiz)",
            "type": "ttmm",
            "lonmin": -6.31579,
            "latmin": 36.4885,
            "lonmax": -6.26192,
            "latmax": 36.54585
        }, {
            "title": "Alcalá de los Gazules (Cádiz)",
            "type": "ttmm",
            "lonmin": -5.73173,
            "latmin": 36.45553,
            "lonmax": -5.71309,
            "latmax": 36.46578
        }, {
            "title": "Alcalá del Valle (Cádiz)",
            "type": "ttmm",
            "lonmin": -5.17943,
            "latmin": 36.89879,
            "lonmax": -5.16602,
            "latmax": 36.91112
        }, {
            "title": "Algar (Cádiz)",
            "type": "ttmm",
            "lonmin": -5.66776,
            "latmin": 36.6456,
            "lonmax": -5.65112,
            "latmax": 36.66036
        }, {
            "title": "Algeciras (Cádiz)",
            "type": "ttmm",
            "lonmin": -5.47429,
            "latmin": 36.11262,
            "lonmax": -5.42378,
            "latmax": 36.16979
        }, {
            "title": "Algodonales (Cádiz)",
            "type": "ttmm",
            "lonmin": -5.41205,
            "latmin": 36.87405,
            "lonmax": -5.39276,
            "latmax": 36.88653
        }, {
            "title": "Arcos de la Frontera (Cádiz)",
            "type": "ttmm",
            "lonmin": -5.83282,
            "latmin": 36.73942,
            "lonmax": -5.79186,
            "latmax": 36.76395
        }, {
            "title": "Barbate (Cádiz)",
            "type": "ttmm",
            "lonmin": -5.93624,
            "latmin": 36.17912,
            "lonmax": -5.91108,
            "latmax": 36.19823
        }, {
            "title": "Benalup-Casas Viejas (Cádiz)",
            "type": "ttmm",
            "lonmin": -5.82388,
            "latmin": 36.33264,
            "lonmax": -5.80061,
            "latmax": 36.35766
        }, {
            "title": "Benaocaz (Cádiz)",
            "type": "ttmm",
            "lonmin": -5.42531,
            "latmin": 36.69324,
            "lonmax": -5.41865,
            "latmax": 36.70439
        }, {
            "title": "Bornos (Cádiz)",
            "type": "ttmm",
            "lonmin": -5.74979,
            "latmin": 36.81025,
            "lonmax": -5.73513,
            "latmax": 36.82592
        }, {
            "title": "Castellar de la Frontera (Cádiz)",
            "type": "ttmm",
            "lonmin": -5.42537,
            "latmin": 36.27927,
            "lonmax": -5.41193,
            "latmax": 36.29049
        }, {
            "title": "Chiclana de la Frontera (Cádiz)",
            "type": "ttmm",
            "lonmin": -6.16436,
            "latmin": 36.40576,
            "lonmax": -6.12218,
            "latmax": 36.43304
        }, {
            "title": "Chipiona (Cádiz)",
            "type": "ttmm",
            "lonmin": -6.4417,
            "latmin": 36.71435,
            "lonmax": -6.4176,
            "latmax": 36.74829
        }, {
            "title": "Conil de la Frontera (Cádiz)",
            "type": "ttmm",
            "lonmin": -6.1019,
            "latmin": 36.27047,
            "lonmax": -6.07682,
            "latmax": 36.29407
        }, {
            "title": "El Bosque (Cádiz)",
            "type": "ttmm",
            "lonmin": -5.51496,
            "latmin": 36.7436,
            "lonmax": -5.4993,
            "latmax": 36.76415
        }, {
            "title": "El Gastor (Cádiz)",
            "type": "ttmm",
            "lonmin": -5.32646,
            "latmin": 36.85229,
            "lonmax": -5.31923,
            "latmax": 36.85885
        }, {
            "title": "El Puerto de Santa María (Cádiz)",
            "type": "ttmm",
            "lonmin": -6.24902,
            "latmin": 36.57247,
            "lonmax": -6.21318,
            "latmax": 36.61159
        }, {
            "title": "Espera (Cádiz)",
            "type": "ttmm",
            "lonmin": -5.81018,
            "latmin": 36.86446,
            "lonmax": -5.79773,
            "latmax": 36.87846
        }, {
            "title": "Grazalema (Cádiz)",
            "type": "ttmm",
            "lonmin": -5.37388,
            "latmin": 36.75712,
            "lonmax": -5.36266,
            "latmax": 36.76297
        }, {
            "title": "Jerez de la Frontera (Cádiz)",
            "type": "ttmm",
            "lonmin": -6.15816,
            "latmin": 36.65796,
            "lonmax": -6.0777,
            "latmax": 36.7237
        }, {
            "title": "Jimena de la Frontera (Cádiz)",
            "type": "ttmm",
            "lonmin": -5.45633,
            "latmin": 36.42505,
            "lonmax": -5.44268,
            "latmax": 36.44094
        }, {
            "title": "Linea de la Concepción (Cádiz)",
            "type": "ttmm",
            "lonmin": -5.36988,
            "latmin": 36.15222,
            "lonmax": -5.33298,
            "latmax": 36.18401
        }, {
            "title": "Los Barrios (Cádiz)",
            "type": "ttmm",
            "lonmin": -5.50461,
            "latmin": 36.17336,
            "lonmax": -5.47983,
            "latmax": 36.19235
        }, {
            "title": "Medina-Sidonia (Cádiz)",
            "type": "ttmm",
            "lonmin": -5.94689,
            "latmin": 36.44947,
            "lonmax": -5.92176,
            "latmax": 36.47249
        }, {
            "title": "Olvera (Cádiz)",
            "type": "ttmm",
            "lonmin": -5.27271,
            "latmin": 36.92836,
            "lonmax": -5.24198,
            "latmax": 36.94024
        }, {
            "title": "Paterna de Rivera (Cádiz)",
            "type": "ttmm",
            "lonmin": -5.88236,
            "latmin": 36.51772,
            "lonmax": -5.85999,
            "latmax": 36.53133
        }, {
            "title": "Prado del Rey (Cádiz)",
            "type": "ttmm",
            "lonmin": -5.56239,
            "latmin": 36.78176,
            "lonmax": -5.55065,
            "latmax": 36.79229
        }, {
            "title": "Puerto Real (Cádiz)",
            "type": "ttmm",
            "lonmin": -6.20288,
            "latmin": 36.52046,
            "lonmax": -6.16519,
            "latmax": 36.5362
        }, {
            "title": "Puerto Serrano (Cádiz)",
            "type": "ttmm",
            "lonmin": -5.54945,
            "latmin": 36.91302,
            "lonmax": -5.53189,
            "latmax": 36.9302
        }, {
            "title": "Rota (Cádiz)",
            "type": "ttmm",
            "lonmin": -6.37982,
            "latmin": 36.61309,
            "lonmax": -6.33606,
            "latmax": 36.6412
        }, {
            "title": "San Fernando (Cádiz)",
            "type": "ttmm",
            "lonmin": -6.22799,
            "latmin": 36.43428,
            "lonmax": -6.18384,
            "latmax": 36.48581
        }, {
            "title": "San José del Valle (Cádiz)",
            "type": "ttmm",
            "lonmin": -5.81321,
            "latmin": 36.59287,
            "lonmax": -5.78616,
            "latmax": 36.61696
        }, {
            "title": "San Roque (Cádiz)",
            "type": "ttmm",
            "lonmin": -5.40463,
            "latmin": 36.20273,
            "lonmax": -5.37989,
            "latmax": 36.21737
        }, {
            "title": "Sanlúcar de Barrameda (Cádiz)",
            "type": "ttmm",
            "lonmin": -6.37997,
            "latmin": 36.75797,
            "lonmax": -6.33487,
            "latmax": 36.79608
        }, {
            "title": "Setenil (Cádiz)",
            "type": "ttmm",
            "lonmin": -5.18406,
            "latmin": 36.86551,
            "lonmax": -5.18275,
            "latmax": 36.86677
        }, {
            "title": "Setenil de las Bodegas (Cádiz)",
            "type": "ttmm",
            "lonmin": -5.1894,
            "latmin": 36.85992,
            "lonmax": -5.16541,
            "latmax": 36.86921
        }, {
            "title": "Tarifa (Cádiz)",
            "type": "ttmm",
            "lonmin": -5.6163,
            "latmin": 36.00086,
            "lonmax": -5.59231,
            "latmax": 36.02656
        }, {
            "title": "Torre-Alhaquime (Cádiz)",
            "type": "ttmm",
            "lonmin": -5.23814,
            "latmin": 36.91338,
            "lonmax": -5.23084,
            "latmax": 36.91791
        }, {
            "title": "Trebujena (Cádiz)",
            "type": "ttmm",
            "lonmin": -6.18172,
            "latmin": 36.86325,
            "lonmax": -6.16734,
            "latmax": 36.87622
        }, {
            "title": "Ubrique (Cádiz)",
            "type": "ttmm",
            "lonmin": -5.45576,
            "latmin": 36.65579,
            "lonmax": -5.44103,
            "latmax": 36.68595
        }, {
            "title": "Vejer de la Frontera (Cádiz)",
            "type": "ttmm",
            "lonmin": -5.97232,
            "latmin": 36.24368,
            "lonmax": -5.95954,
            "latmax": 36.25782
        }, {
            "title": "Villaluenga del Rosario (Cádiz)",
            "type": "ttmm",
            "lonmin": -5.39212,
            "latmin": 36.6932,
            "lonmax": -5.37944,
            "latmax": 36.69768
        }, {
            "title": "Villamartín (Cádiz)",
            "type": "ttmm",
            "lonmin": -5.65921,
            "latmin": 36.85323,
            "lonmax": -5.62958,
            "latmax": 36.87118
        }, {
            "title": "Zahara (Cádiz)",
            "type": "ttmm",
            "lonmin": -5.39605,
            "latmin": 36.83654,
            "lonmax": -5.38886,
            "latmax": 36.84582
        }, {
            "title": "Córdoba (Córdoba)",
            "type": "ttmm",
            "lonmin": -4.82265,
            "latmin": 37.85378,
            "lonmax": -4.74923,
            "latmax": 37.92803
        }, {
            "title": "Añora (Córdoba)",
            "type": "ttmm",
            "lonmin": -4.90386,
            "latmin": 38.40663,
            "lonmax": -4.89278,
            "latmax": 38.41532
        }, {
            "title": "Adamuz (Córdoba)",
            "type": "ttmm",
            "lonmin": -4.52859,
            "latmin": 38.02303,
            "lonmax": -4.5165,
            "latmax": 38.03353
        }, {
            "title": "Aguilar (Córdoba)",
            "type": "ttmm",
            "lonmin": -4.67214,
            "latmin": 37.50496,
            "lonmax": -4.64125,
            "latmax": 37.52713
        }, {
            "title": "Alcaracejos (Córdoba)",
            "type": "ttmm",
            "lonmin": -4.97281,
            "latmin": 38.3841,
            "lonmax": -4.96321,
            "latmax": 38.39317
        }, {
            "title": "Almedinilla (Córdoba)",
            "type": "ttmm",
            "lonmin": -4.09994,
            "latmin": 37.43762,
            "lonmax": -4.08266,
            "latmax": 37.44297
        }, {
            "title": "Almodóvar del Río (Córdoba)",
            "type": "ttmm",
            "lonmin": -5.02672,
            "latmin": 37.80735,
            "lonmax": -5.00887,
            "latmax": 37.82022
        }, {
            "title": "Baena (Córdoba)",
            "type": "ttmm",
            "lonmin": -4.3385,
            "latmin": 37.60999,
            "lonmax": -4.30113,
            "latmax": 37.62722
        }, {
            "title": "Belalcázar (Córdoba)",
            "type": "ttmm",
            "lonmin": -5.17663,
            "latmin": 38.56877,
            "lonmax": -5.16008,
            "latmax": 38.58154
        }, {
            "title": "Belmez (Córdoba)",
            "type": "ttmm",
            "lonmin": -5.21571,
            "latmin": 38.2641,
            "lonmax": -5.19923,
            "latmax": 38.27779
        }, {
            "title": "Benamejí (Córdoba)",
            "type": "ttmm",
            "lonmin": -4.54909,
            "latmin": 37.26406,
            "lonmax": -4.53001,
            "latmax": 37.27886
        }, {
            "title": "Blazquez (Córdoba)",
            "type": "ttmm",
            "lonmin": -5.44299,
            "latmin": 38.40417,
            "lonmax": -5.43402,
            "latmax": 38.41126
        }, {
            "title": "Bujalance (Córdoba)",
            "type": "ttmm",
            "lonmin": -4.38806,
            "latmin": 37.88212,
            "lonmax": -4.37188,
            "latmax": 37.90269
        }, {
            "title": "Cañete de las Torres (Córdoba)",
            "type": "ttmm",
            "lonmin": -4.32728,
            "latmin": 37.86264,
            "lonmax": -4.31224,
            "latmax": 37.87443
        }, {
            "title": "Cabra (Córdoba)",
            "type": "ttmm",
            "lonmin": -4.46004,
            "latmin": 37.46182,
            "lonmax": -4.42292,
            "latmax": 37.48114
        }, {
            "title": "Carcabuey (Córdoba)",
            "type": "ttmm",
            "lonmin": -4.27939,
            "latmin": 37.4386,
            "lonmax": -4.271,
            "latmax": 37.4494
        }, {
            "title": "Cardeña (Córdoba)",
            "type": "ttmm",
            "lonmin": -4.3279,
            "latmin": 38.26588,
            "lonmax": -4.31921,
            "latmax": 38.27642
        }, {
            "title": "Carlota (Córdoba)",
            "type": "ttmm",
            "lonmin": -4.9432,
            "latmin": 37.66132,
            "lonmax": -4.90981,
            "latmax": 37.68777
        }, {
            "title": "Castro del Río (Córdoba)",
            "type": "ttmm",
            "lonmin": -4.48947,
            "latmin": 37.68262,
            "lonmax": -4.46079,
            "latmax": 37.697
        }, {
            "title": "Conquista (Córdoba)",
            "type": "ttmm",
            "lonmin": -4.50485,
            "latmin": 38.4058,
            "lonmax": -4.49529,
            "latmax": 38.41181
        }, {
            "title": "Doña Mencía (Córdoba)",
            "type": "ttmm",
            "lonmin": -4.36268,
            "latmin": 37.54708,
            "lonmax": -4.35128,
            "latmax": 37.56069
        }, {
            "title": "Dos Torres (Córdoba)",
            "type": "ttmm",
            "lonmin": -4.90224,
            "latmin": 38.43788,
            "lonmax": -4.88872,
            "latmax": 38.4503
        }, {
            "title": "El Carpio (Córdoba)",
            "type": "ttmm",
            "lonmin": -4.50117,
            "latmin": 37.93437,
            "lonmax": -4.47756,
            "latmax": 37.94647
        }, {
            "title": "El Viso (Córdoba)",
            "type": "ttmm",
            "lonmin": -4.96391,
            "latmin": 38.47415,
            "lonmax": -4.94712,
            "latmax": 38.49245
        }, {
            "title": "Encinas Reales (Córdoba)",
            "type": "ttmm",
            "lonmin": -4.49469,
            "latmin": 37.26891,
            "lonmax": -4.48039,
            "latmax": 37.27955
        }, {
            "title": "Espejo (Córdoba)",
            "type": "ttmm",
            "lonmin": -4.56044,
            "latmin": 37.67241,
            "lonmax": -4.54803,
            "latmax": 37.68874
        }, {
            "title": "Espiel (Córdoba)",
            "type": "ttmm",
            "lonmin": -5.02684,
            "latmin": 38.1853,
            "lonmax": -5.01329,
            "latmax": 38.19301
        }, {
            "title": "Fernán Núñez (Córdoba)",
            "type": "ttmm",
            "lonmin": -4.73795,
            "latmin": 37.65916,
            "lonmax": -4.71277,
            "latmax": 37.6787
        }, {
            "title": "Fuente la Lancha (Córdoba)",
            "type": "ttmm",
            "lonmin": -5.05023,
            "latmin": 38.42076,
            "lonmax": -5.04483,
            "latmax": 38.42517
        }, {
            "title": "Fuente Obejuna (Córdoba)",
            "type": "ttmm",
            "lonmin": -5.42972,
            "latmin": 38.26121,
            "lonmax": -5.41212,
            "latmax": 38.27239
        }, {
            "title": "Fuente Palmera (Córdoba)",
            "type": "ttmm",
            "lonmin": -5.10884,
            "latmin": 37.69929,
            "lonmax": -5.08523,
            "latmax": 37.7137
        }, {
            "title": "Fuente-Tojar (Córdoba)",
            "type": "ttmm",
            "lonmin": -4.14892,
            "latmin": 37.50731,
            "lonmax": -4.14336,
            "latmax": 37.51306
        }, {
            "title": "Granjuela (Córdoba)",
            "type": "ttmm",
            "lonmin": -5.3541,
            "latmin": 38.36795,
            "lonmax": -5.34678,
            "latmax": 38.3738
        }, {
            "title": "Guadalcazar (Córdoba)",
            "type": "ttmm",
            "lonmin": -4.94775,
            "latmin": 37.75373,
            "lonmax": -4.93785,
            "latmax": 37.76261
        }, {
            "title": "Guijo (Córdoba)",
            "type": "ttmm",
            "lonmin": -4.78514,
            "latmin": 38.49259,
            "lonmax": -4.77954,
            "latmax": 38.49907
        }, {
            "title": "Hinojosa del Duque (Córdoba)",
            "type": "ttmm",
            "lonmin": -5.15801,
            "latmin": 38.48896,
            "lonmax": -5.13292,
            "latmax": 38.50896
        }, {
            "title": "Hornachuelos (Córdoba)",
            "type": "ttmm",
            "lonmin": -5.25997,
            "latmin": 37.82089,
            "lonmax": -5.23829,
            "latmax": 37.83727
        }, {
            "title": "Iznájar (Córdoba)",
            "type": "ttmm",
            "lonmin": -4.31398,
            "latmin": 37.25413,
            "lonmax": -4.29559,
            "latmax": 37.25946
        }, {
            "title": "Lucena (Córdoba)",
            "type": "ttmm",
            "lonmin": -4.51763,
            "latmin": 37.39137,
            "lonmax": -4.46708,
            "latmax": 37.41904
        }, {
            "title": "Luque (Córdoba)",
            "type": "ttmm",
            "lonmin": -4.28556,
            "latmin": 37.5521,
            "lonmax": -4.27463,
            "latmax": 37.5639
        }, {
            "title": "Montalbán de Córdoba (Córdoba)",
            "type": "ttmm",
            "lonmin": -4.75626,
            "latmin": 37.57169,
            "lonmax": -4.73953,
            "latmax": 37.58979
        }, {
            "title": "Montemayor (Córdoba)",
            "type": "ttmm",
            "lonmin": -4.70699,
            "latmin": 37.63529,
            "lonmax": -4.68839,
            "latmax": 37.65418
        }, {
            "title": "Montilla (Córdoba)",
            "type": "ttmm",
            "lonmin": -4.65978,
            "latmin": 37.56885,
            "lonmax": -4.62001,
            "latmax": 37.60247
        }, {
            "title": "Montoro (Córdoba)",
            "type": "ttmm",
            "lonmin": -4.38818,
            "latmin": 38.00984,
            "lonmax": -4.37446,
            "latmax": 38.02931
        }, {
            "title": "Monturque (Córdoba)",
            "type": "ttmm",
            "lonmin": -4.58714,
            "latmin": 37.4642,
            "lonmax": -4.56567,
            "latmax": 37.4747
        }, {
            "title": "Moriles (Córdoba)",
            "type": "ttmm",
            "lonmin": -4.61607,
            "latmin": 37.42953,
            "lonmax": -4.60057,
            "latmax": 37.44129
        }, {
            "title": "Nueva-Carteya (Córdoba)",
            "type": "ttmm",
            "lonmin": -4.47597,
            "latmin": 37.57803,
            "lonmax": -4.45706,
            "latmax": 37.59131
        }, {
            "title": "Obejo (Córdoba)",
            "type": "ttmm",
            "lonmin": -4.80262,
            "latmin": 38.13034,
            "lonmax": -4.79691,
            "latmax": 38.13487
        }, {
            "title": "Palenciana (Córdoba)",
            "type": "ttmm",
            "lonmin": -4.59011,
            "latmin": 37.24415,
            "lonmax": -4.57683,
            "latmax": 37.25251
        }, {
            "title": "Palma del Río (Córdoba)",
            "type": "ttmm",
            "lonmin": -5.28781,
            "latmin": 37.69057,
            "lonmax": -5.26406,
            "latmax": 37.71481
        }, {
            "title": "Peñarroya-Pueblonuevo (Córdoba)",
            "type": "ttmm",
            "lonmin": -5.28671,
            "latmin": 38.28794,
            "lonmax": -5.24411,
            "latmax": 38.31854
        }, {
            "title": "Pedro Abad (Córdoba)",
            "type": "ttmm",
            "lonmin": -4.46234,
            "latmin": 37.96111,
            "lonmax": -4.4522,
            "latmax": 37.97307
        }, {
            "title": "Pedroche (Córdoba)",
            "type": "ttmm",
            "lonmin": -4.76998,
            "latmin": 38.42238,
            "lonmax": -4.75678,
            "latmax": 38.43216
        }, {
            "title": "Posadas (Córdoba)",
            "type": "ttmm",
            "lonmin": -5.12158,
            "latmin": 37.79834,
            "lonmax": -5.0956,
            "latmax": 37.8102
        }, {
            "title": "Pozoblanco (Córdoba)",
            "type": "ttmm",
            "lonmin": -4.86359,
            "latmin": 38.36605,
            "lonmax": -4.83183,
            "latmax": 38.38722
        }, {
            "title": "Priego de Córdoba (Córdoba)",
            "type": "ttmm",
            "lonmin": -4.225,
            "latmin": 37.42932,
            "lonmax": -4.18788,
            "latmax": 37.44613
        }, {
            "title": "Puente-Genil (Córdoba)",
            "type": "ttmm",
            "lonmin": -4.78399,
            "latmin": 37.38184,
            "lonmax": -4.74057,
            "latmax": 37.41068
        }, {
            "title": "Puente-Genil (Córdoba)",
            "type": "ttmm",
            "lonmin": -4.7624,
            "latmin": 37.40319,
            "lonmax": -4.75922,
            "latmax": 37.40696
        }, {
            "title": "Rambla (Córdoba)",
            "type": "ttmm",
            "lonmin": -4.74757,
            "latmin": 37.60021,
            "lonmax": -4.72684,
            "latmax": 37.61369
        }, {
            "title": "Rute (Córdoba)",
            "type": "ttmm",
            "lonmin": -4.37917,
            "latmin": 37.3169,
            "lonmax": -4.35952,
            "latmax": 37.33575
        }, {
            "title": "San Sebastián de Los Ballesteros (Córdoba)",
            "type": "ttmm",
            "lonmin": -4.82772,
            "latmin": 37.65043,
            "lonmax": -4.81719,
            "latmax": 37.65791
        }, {
            "title": "Santa Eufemia (Córdoba)",
            "type": "ttmm",
            "lonmin": -4.90927,
            "latmin": 38.59297,
            "lonmax": -4.89856,
            "latmax": 38.59955
        }, {
            "title": "Santaella (Córdoba)",
            "type": "ttmm",
            "lonmin": -4.8487,
            "latmin": 37.55186,
            "lonmax": -4.83907,
            "latmax": 37.56898
        }, {
            "title": "Torrecampo (Córdoba)",
            "type": "ttmm",
            "lonmin": -4.68456,
            "latmin": 38.46858,
            "lonmax": -4.67093,
            "latmax": 38.47715
        }, {
            "title": "Valenzuela (Córdoba)",
            "type": "ttmm",
            "lonmin": -4.22802,
            "latmin": 37.77171,
            "lonmax": -4.21279,
            "latmax": 37.782
        }, {
            "title": "Valsequillo (Córdoba)",
            "type": "ttmm",
            "lonmin": -5.355,
            "latmin": 38.40202,
            "lonmax": -5.34792,
            "latmax": 38.41087
        }, {
            "title": "Victoria (Córdoba)",
            "type": "ttmm",
            "lonmin": -4.85889,
            "latmin": 37.67379,
            "lonmax": -4.84867,
            "latmax": 37.68728
        }, {
            "title": "Villa del Rio (Córdoba)",
            "type": "ttmm",
            "lonmin": -4.30141,
            "latmin": 37.97528,
            "lonmax": -4.28354,
            "latmax": 37.98946
        }, {
            "title": "Villafranca de Cordoba (Córdoba)",
            "type": "ttmm",
            "lonmin": -4.55187,
            "latmin": 37.95555,
            "lonmax": -4.54067,
            "latmax": 37.96921
        }, {
            "title": "Villaharta (Córdoba)",
            "type": "ttmm",
            "lonmin": -4.90553,
            "latmin": 38.13742,
            "lonmax": -4.9,
            "latmax": 38.14165
        }, {
            "title": "Villanueva de Cordoba (Córdoba)",
            "type": "ttmm",
            "lonmin": -4.63571,
            "latmin": 38.31415,
            "lonmax": -4.61093,
            "latmax": 38.33113
        }, {
            "title": "Villanueva del Duque (Córdoba)",
            "type": "ttmm",
            "lonmin": -5.00439,
            "latmin": 38.39017,
            "lonmax": -4.99311,
            "latmax": 38.39748
        }, {
            "title": "Villanueva del Rey (Córdoba)",
            "type": "ttmm",
            "lonmin": -5.15723,
            "latmin": 38.19357,
            "lonmax": -5.14799,
            "latmax": 38.20446
        }, {
            "title": "Villaralto (Córdoba)",
            "type": "ttmm",
            "lonmin": -4.98834,
            "latmin": 38.45146,
            "lonmax": -4.97779,
            "latmax": 38.45847
        }, {
            "title": "Villaviciosa de Cordoba (Córdoba)",
            "type": "ttmm",
            "lonmin": -5.02131,
            "latmin": 38.06915,
            "lonmax": -5.00965,
            "latmax": 38.08212
        }, {
            "title": "Zuheros (Córdoba)",
            "type": "ttmm",
            "lonmin": -4.31721,
            "latmin": 37.54135,
            "lonmax": -4.31243,
            "latmax": 37.54718
        }, {
            "title": "Granada (Granada)",
            "type": "ttmm",
            "lonmin": -3.63278,
            "latmin": 37.14964,
            "lonmax": -3.56582,
            "latmax": 37.21279
        }, {
            "title": "Íllora (Granada)",
            "type": "ttmm",
            "lonmin": -3.88874,
            "latmin": 37.28064,
            "lonmax": -3.86674,
            "latmax": 37.29169
        }, {
            "title": "Ítrabo (Granada)",
            "type": "ttmm",
            "lonmin": -3.64238,
            "latmin": 36.79672,
            "lonmax": -3.63717,
            "latmax": 36.80201
        }, {
            "title": "Ízbor (Granada)",
            "type": "ttmm",
            "lonmin": -3.52725,
            "latmin": 36.89267,
            "lonmax": -3.52535,
            "latmax": 36.89635
        }, {
            "title": "Órgiva (Granada)",
            "type": "ttmm",
            "lonmin": -3.42671,
            "latmin": 36.89289,
            "lonmax": -3.41397,
            "latmax": 36.90545
        }, {
            "title": "Agrón (Granada)",
            "type": "ttmm",
            "lonmin": -3.83302,
            "latmin": 37.02853,
            "lonmax": -3.82726,
            "latmax": 37.0314
        }, {
            "title": "Alamedilla (Granada)",
            "type": "ttmm",
            "lonmin": -3.24722,
            "latmin": 37.57808,
            "lonmax": -3.23997,
            "latmax": 37.58394
        }, {
            "title": "Albolote (Granada)",
            "type": "ttmm",
            "lonmin": -3.66303,
            "latmin": 37.22389,
            "lonmax": -3.64825,
            "latmax": 37.23715
        }, {
            "title": "Albondón (Granada)",
            "type": "ttmm",
            "lonmin": -3.21627,
            "latmin": 36.82453,
            "lonmax": -3.20995,
            "latmax": 36.82988
        }, {
            "title": "Albuñán (Granada)",
            "type": "ttmm",
            "lonmin": -3.13859,
            "latmin": 37.22305,
            "lonmax": -3.13089,
            "latmax": 37.23142
        }, {
            "title": "Albuñol (Granada)",
            "type": "ttmm",
            "lonmin": -3.20868,
            "latmin": 36.78893,
            "lonmax": -3.19683,
            "latmax": 36.79459
        }, {
            "title": "Albuñuelas (Granada)",
            "type": "ttmm",
            "lonmin": -3.63341,
            "latmin": 36.9259,
            "lonmax": -3.62546,
            "latmax": 36.92998
        }, {
            "title": "Alcudia de Guadix (Granada)",
            "type": "ttmm",
            "lonmin": -3.10258,
            "latmin": 37.2534,
            "lonmax": -3.09413,
            "latmax": 37.26372
        }, {
            "title": "Aldeire (Granada)",
            "type": "ttmm",
            "lonmin": -3.07408,
            "latmin": 37.15459,
            "lonmax": -3.06939,
            "latmax": 37.16469
        }, {
            "title": "Alfacar (Granada)",
            "type": "ttmm",
            "lonmin": -3.57288,
            "latmin": 37.2349,
            "lonmax": -3.5598,
            "latmax": 37.24199
        }, {
            "title": "Algarinejo (Granada)",
            "type": "ttmm",
            "lonmin": -4.15997,
            "latmin": 37.32287,
            "lonmax": -4.15134,
            "latmax": 37.32903
        }, {
            "title": "Alhama de Granada (Granada)",
            "type": "ttmm",
            "lonmin": -3.99428,
            "latmin": 36.99837,
            "lonmax": -3.98285,
            "latmax": 37.01161
        }, {
            "title": "Alhendín (Granada)",
            "type": "ttmm",
            "lonmin": -3.65137,
            "latmin": 37.09565,
            "lonmax": -3.63192,
            "latmax": 37.11725
        }, {
            "title": "Alicún de Ortega (Granada)",
            "type": "ttmm",
            "lonmin": -3.14159,
            "latmin": 37.60615,
            "lonmax": -3.13488,
            "latmax": 37.61148
        }, {
            "title": "Almegíjar (Granada)",
            "type": "ttmm",
            "lonmin": -3.30176,
            "latmin": 36.9013,
            "lonmax": -3.29849,
            "latmax": 36.90388
        }, {
            "title": "Almuñécar (Granada)",
            "type": "ttmm",
            "lonmin": -3.71018,
            "latmin": 36.72908,
            "lonmax": -3.68105,
            "latmax": 36.74485
        }, {
            "title": "Alquife (Granada)",
            "type": "ttmm",
            "lonmin": -3.1191,
            "latmin": 37.17728,
            "lonmax": -3.11013,
            "latmax": 37.18295
        }, {
            "title": "Arenas del Rey (Granada)",
            "type": "ttmm",
            "lonmin": -3.89648,
            "latmin": 36.95604,
            "lonmax": -3.89128,
            "latmax": 36.96122
        }, {
            "title": "Armilla (Granada)",
            "type": "ttmm",
            "lonmin": -3.63222,
            "latmin": 37.13376,
            "lonmax": -3.61315,
            "latmax": 37.15006
        }, {
            "title": "Atarfe (Granada)",
            "type": "ttmm",
            "lonmin": -3.70481,
            "latmin": 37.21601,
            "lonmax": -3.67507,
            "latmax": 37.23184
        }, {
            "title": "Bérchules (Granada)",
            "type": "ttmm",
            "lonmin": -3.19402,
            "latmin": 36.96948,
            "lonmax": -3.18924,
            "latmax": 36.97931
        }, {
            "title": "Baza (Granada)",
            "type": "ttmm",
            "lonmin": -2.78745,
            "latmin": 37.47678,
            "lonmax": -2.75407,
            "latmax": 37.49798
        }, {
            "title": "Beas de Granada (Granada)",
            "type": "ttmm",
            "lonmin": -3.48398,
            "latmin": 37.21532,
            "lonmax": -3.47756,
            "latmax": 37.22354
        }, {
            "title": "Beas de Guadix (Granada)",
            "type": "ttmm",
            "lonmin": -3.20815,
            "latmin": 37.27757,
            "lonmax": -3.20409,
            "latmax": 37.28292
        }, {
            "title": "Benalúa (Granada)",
            "type": "ttmm",
            "lonmin": -3.1707,
            "latmin": 37.34293,
            "lonmax": -3.1562,
            "latmax": 37.35979
        }, {
            "title": "Benalúa de las Villas (Granada)",
            "type": "ttmm",
            "lonmin": -3.68788,
            "latmin": 37.42273,
            "lonmax": -3.67974,
            "latmax": 37.43216
        }, {
            "title": "Benamaurel (Granada)",
            "type": "ttmm",
            "lonmin": -2.71028,
            "latmin": 37.60403,
            "lonmax": -2.69347,
            "latmax": 37.61058
        }, {
            "title": "Bubión (Granada)",
            "type": "ttmm",
            "lonmin": -3.35746,
            "latmin": 36.94583,
            "lonmax": -3.35319,
            "latmax": 36.95247
        }, {
            "title": "Busquístar (Granada)",
            "type": "ttmm",
            "lonmin": -3.29594,
            "latmin": 36.93624,
            "lonmax": -3.29098,
            "latmax": 36.93935
        }, {
            "title": "Cáñar (Granada)",
            "type": "ttmm",
            "lonmin": -3.42849,
            "latmin": 36.92499,
            "lonmax": -3.42509,
            "latmax": 36.92724
        }, {
            "title": "Cádiar (Granada)",
            "type": "ttmm",
            "lonmin": -3.18224,
            "latmin": 36.93895,
            "lonmax": -3.17393,
            "latmax": 36.95006
        }, {
            "title": "Cájar (Granada)",
            "type": "ttmm",
            "lonmin": -3.57591,
            "latmin": 37.12541,
            "lonmax": -3.56606,
            "latmax": 37.14017
        }, {
            "title": "Cástaras (Granada)",
            "type": "ttmm",
            "lonmin": -3.25512,
            "latmin": 36.92984,
            "lonmax": -3.25269,
            "latmax": 36.93297
        }, {
            "title": "Cúllar (Granada)",
            "type": "ttmm",
            "lonmin": -2.58848,
            "latmin": 37.58056,
            "lonmax": -2.56662,
            "latmax": 37.59128
        }, {
            "title": "Cúllar Vega (Granada)",
            "type": "ttmm",
            "lonmin": -3.68035,
            "latmin": 37.14856,
            "lonmax": -3.66555,
            "latmax": 37.16146
        }, {
            "title": "Cacín (Granada)",
            "type": "ttmm",
            "lonmin": -3.91817,
            "latmin": 37.05532,
            "lonmax": -3.91336,
            "latmax": 37.06201
        }, {
            "title": "Calicasas (Granada)",
            "type": "ttmm",
            "lonmin": -3.62492,
            "latmin": 37.27188,
            "lonmax": -3.61271,
            "latmax": 37.2749
        }, {
            "title": "Campotéjar (Granada)",
            "type": "ttmm",
            "lonmin": -3.62341,
            "latmin": 37.47927,
            "lonmax": -3.61199,
            "latmax": 37.48662
        }, {
            "title": "Caniles (Granada)",
            "type": "ttmm",
            "lonmin": -2.72828,
            "latmin": 37.42729,
            "lonmax": -2.71665,
            "latmax": 37.44442
        }, {
            "title": "Capileira (Granada)",
            "type": "ttmm",
            "lonmin": -3.36223,
            "latmin": 36.95951,
            "lonmax": -3.35675,
            "latmax": 36.96302
        }, {
            "title": "Carataunas (Granada)",
            "type": "ttmm",
            "lonmin": -3.41018,
            "latmin": 36.92133,
            "lonmax": -3.40719,
            "latmax": 36.92472
        }, {
            "title": "Castell de Ferro (Granada)",
            "type": "ttmm",
            "lonmin": -3.36283,
            "latmin": 36.71912,
            "lonmax": -3.35175,
            "latmax": 36.72952
        }, {
            "title": "Castilléjar (Granada)",
            "type": "ttmm",
            "lonmin": -2.64544,
            "latmin": 37.71095,
            "lonmax": -2.63855,
            "latmax": 37.7243
        }, {
            "title": "Castril (Granada)",
            "type": "ttmm",
            "lonmin": -2.78437,
            "latmin": 37.79346,
            "lonmax": -2.77757,
            "latmax": 37.79859
        }, {
            "title": "Cenes de la Vega (Granada)",
            "type": "ttmm",
            "lonmin": -3.54789,
            "latmin": 37.15524,
            "lonmax": -3.52757,
            "latmax": 37.16497
        }, {
            "title": "Chauchina (Granada)",
            "type": "ttmm",
            "lonmin": -3.77979,
            "latmin": 37.19066,
            "lonmax": -3.76505,
            "latmax": 37.20703
        }, {
            "title": "Chimeneas (Granada)",
            "type": "ttmm",
            "lonmin": -3.82686,
            "latmin": 37.12458,
            "lonmax": -3.81873,
            "latmax": 37.13519
        }, {
            "title": "Churriana de la Vega (Granada)",
            "type": "ttmm",
            "lonmin": -3.6557,
            "latmin": 37.13998,
            "lonmax": -3.62597,
            "latmax": 37.15124
        }, {
            "title": "Cijuela (Granada)",
            "type": "ttmm",
            "lonmin": -3.81654,
            "latmin": 37.1949,
            "lonmax": -3.80309,
            "latmax": 37.20363
        }, {
            "title": "Cogollos de Guadix (Granada)",
            "type": "ttmm",
            "lonmin": -3.16627,
            "latmin": 37.22229,
            "lonmax": -3.15315,
            "latmax": 37.22923
        }, {
            "title": "Cogollos Vega (Granada)",
            "type": "ttmm",
            "lonmin": -3.57721,
            "latmin": 37.27264,
            "lonmax": -3.5662,
            "latmax": 37.28015
        }, {
            "title": "Colomera (Granada)",
            "type": "ttmm",
            "lonmin": -3.71603,
            "latmin": 37.3628,
            "lonmax": -3.70987,
            "latmax": 37.37653
        }, {
            "title": "Cortes de Baza (Granada)",
            "type": "ttmm",
            "lonmin": -2.77403,
            "latmin": 37.64889,
            "lonmax": -2.76544,
            "latmax": 37.65818
        }, {
            "title": "Cozvíjar (Granada)",
            "type": "ttmm",
            "lonmin": -3.59332,
            "latmin": 36.9874,
            "lonmax": -3.58483,
            "latmax": 36.99231
        }, {
            "title": "Cuevas del Campo (Granada)",
            "type": "ttmm",
            "lonmin": -2.93771,
            "latmin": 37.60303,
            "lonmax": -2.9203,
            "latmax": 37.61305
        }, {
            "title": "Dílar (Granada)",
            "type": "ttmm",
            "lonmin": -3.6047,
            "latmin": 37.06631,
            "lonmax": -3.5937,
            "latmax": 37.07851
        }, {
            "title": "Dólar (Granada)",
            "type": "ttmm",
            "lonmin": -2.99323,
            "latmin": 37.17511,
            "lonmax": -2.98797,
            "latmax": 37.18318
        }, {
            "title": "Dúdar (Granada)",
            "type": "ttmm",
            "lonmin": -3.48568,
            "latmin": 37.18532,
            "lonmax": -3.48071,
            "latmax": 37.1875
        }, {
            "title": "Dúrcal (Granada)",
            "type": "ttmm",
            "lonmin": -3.57321,
            "latmin": 36.97817,
            "lonmax": -3.55521,
            "latmax": 36.9936
        }, {
            "title": "Darro (Granada)",
            "type": "ttmm",
            "lonmin": -3.29833,
            "latmin": 37.34293,
            "lonmax": -3.28613,
            "latmax": 37.35648
        }, {
            "title": "Dehesas de Guadix (Granada)",
            "type": "ttmm",
            "lonmin": -3.10952,
            "latmin": 37.58703,
            "lonmax": -3.10051,
            "latmax": 37.59179
        }, {
            "title": "Deifontes (Granada)",
            "type": "ttmm",
            "lonmin": -3.60112,
            "latmin": 37.32164,
            "lonmax": -3.58665,
            "latmax": 37.33172
        }, {
            "title": "Diezma (Granada)",
            "type": "ttmm",
            "lonmin": -3.34098,
            "latmin": 37.31734,
            "lonmax": -3.32748,
            "latmax": 37.32307
        }, {
            "title": "Escúzar (Granada)",
            "type": "ttmm",
            "lonmin": -3.76681,
            "latmin": 37.0595,
            "lonmax": -3.75826,
            "latmax": 37.06513
        }, {
            "title": "Ferreira (Granada)",
            "type": "ttmm",
            "lonmin": -3.03708,
            "latmin": 37.17046,
            "lonmax": -3.03287,
            "latmax": 37.1747
        }, {
            "title": "Fonelas (Granada)",
            "type": "ttmm",
            "lonmin": -3.18159,
            "latmin": 37.4103,
            "lonmax": -3.17214,
            "latmax": 37.41552
        }, {
            "title": "Freila (Granada)",
            "type": "ttmm",
            "lonmin": -2.91164,
            "latmin": 37.52398,
            "lonmax": -2.90376,
            "latmax": 37.53481
        }, {
            "title": "Fuente Vaqueros (Granada)",
            "type": "ttmm",
            "lonmin": -3.78935,
            "latmin": 37.21275,
            "lonmax": -3.76809,
            "latmax": 37.22748
        }, {
            "title": "Gójar (Granada)",
            "type": "ttmm",
            "lonmin": -3.60852,
            "latmin": 37.09739,
            "lonmax": -3.5964,
            "latmax": 37.10737
        }, {
            "title": "Güejar-Sierra (Granada)",
            "type": "ttmm",
            "lonmin": -3.44649,
            "latmin": 37.15627,
            "lonmax": -3.43268,
            "latmax": 37.16335
        }, {
            "title": "Güevéjar (Granada)",
            "type": "ttmm",
            "lonmin": -3.60076,
            "latmin": 37.25319,
            "lonmax": -3.59147,
            "latmax": 37.26205
        }, {
            "title": "Gabia Grande (Granada)",
            "type": "ttmm",
            "lonmin": -3.68121,
            "latmin": 37.12651,
            "lonmax": -3.66008,
            "latmax": 37.14213
        }, {
            "title": "Galera (Granada)",
            "type": "ttmm",
            "lonmin": -2.55927,
            "latmin": 37.73885,
            "lonmax": -2.54687,
            "latmax": 37.74776
        }, {
            "title": "Gobernador (Granada)",
            "type": "ttmm",
            "lonmin": -3.32413,
            "latmin": 37.47594,
            "lonmax": -3.31847,
            "latmax": 37.47874
        }, {
            "title": "Gor (Granada)",
            "type": "ttmm",
            "lonmin": -2.97325,
            "latmin": 37.36672,
            "lonmax": -2.96721,
            "latmax": 37.3718
        }, {
            "title": "Gorafe (Granada)",
            "type": "ttmm",
            "lonmin": -3.04551,
            "latmin": 37.47626,
            "lonmax": -3.03847,
            "latmax": 37.4812
        }, {
            "title": "Graena (Granada)",
            "type": "ttmm",
            "lonmin": -3.22497,
            "latmin": 37.30112,
            "lonmax": -3.21611,
            "latmax": 37.3067
        }, {
            "title": "Guadahortuna (Granada)",
            "type": "ttmm",
            "lonmin": -3.40355,
            "latmin": 37.55176,
            "lonmax": -3.395,
            "latmax": 37.56331
        }, {
            "title": "Guadix (Granada)",
            "type": "ttmm",
            "lonmin": -3.14903,
            "latmin": 37.28891,
            "lonmax": -3.12577,
            "latmax": 37.31133
        }, {
            "title": "Guajar Faragüit (Granada)",
            "type": "ttmm",
            "lonmin": -3.58664,
            "latmin": 36.83922,
            "lonmax": -3.57919,
            "latmax": 36.84297
        }, {
            "title": "Huélago (Granada)",
            "type": "ttmm",
            "lonmin": -3.26751,
            "latmin": 37.41892,
            "lonmax": -3.25723,
            "latmax": 37.42164
        }, {
            "title": "Huéneja (Granada)",
            "type": "ttmm",
            "lonmin": -2.95389,
            "latmin": 37.17255,
            "lonmax": -2.94552,
            "latmax": 37.17968
        }, {
            "title": "Huéscar (Granada)",
            "type": "ttmm",
            "lonmin": -2.55268,
            "latmin": 37.79642,
            "lonmax": -2.53202,
            "latmax": 37.8184
        }, {
            "title": "Huétor-Santillán (Granada)",
            "type": "ttmm",
            "lonmin": -3.52068,
            "latmin": 37.21508,
            "lonmax": -3.50567,
            "latmax": 37.22724
        }, {
            "title": "Huétor-Tájar (Granada)",
            "type": "ttmm",
            "lonmin": -4.05697,
            "latmin": 37.19011,
            "lonmax": -4.03945,
            "latmax": 37.20411
        }, {
            "title": "Huétor-Vega (Granada)",
            "type": "ttmm",
            "lonmin": -3.58035,
            "latmin": 37.13912,
            "lonmax": -3.56014,
            "latmax": 37.15451
        }, {
            "title": "Iznalloz (Granada)",
            "type": "ttmm",
            "lonmin": -3.5329,
            "latmin": 37.3876,
            "lonmax": -3.51883,
            "latmax": 37.3992
        }, {
            "title": "Jayena (Granada)",
            "type": "ttmm",
            "lonmin": -3.82685,
            "latmin": 36.94697,
            "lonmax": -3.81357,
            "latmax": 36.95148
        }, {
            "title": "Jerez del Marquesado (Granada)",
            "type": "ttmm",
            "lonmin": -3.16765,
            "latmin": 37.17595,
            "lonmax": -3.15498,
            "latmax": 37.18966
        }, {
            "title": "Jete (Granada)",
            "type": "ttmm",
            "lonmin": -3.66981,
            "latmin": 36.79244,
            "lonmax": -3.66663,
            "latmax": 36.79846
        }, {
            "title": "Jun (Granada)",
            "type": "ttmm",
            "lonmin": -3.59734,
            "latmin": 37.21807,
            "lonmax": -3.58805,
            "latmax": 37.22424
        }, {
            "title": "Juviles (Granada)",
            "type": "ttmm",
            "lonmin": -3.2272,
            "latmin": 36.94749,
            "lonmax": -3.22208,
            "latmax": 36.95007
        }, {
            "title": "Láchar (Granada)",
            "type": "ttmm",
            "lonmin": -3.83971,
            "latmin": 37.18986,
            "lonmax": -3.82776,
            "latmax": 37.20035
        }, {
            "title": "Lújar (Granada)",
            "type": "ttmm",
            "lonmin": -3.40729,
            "latmin": 36.78514,
            "lonmax": -3.40069,
            "latmax": 36.78863
        }, {
            "title": "La Calahorra (Granada)",
            "type": "ttmm",
            "lonmin": -3.06826,
            "latmin": 37.17686,
            "lonmax": -3.05872,
            "latmax": 37.18685
        }, {
            "title": "La Malahá (Granada)",
            "type": "ttmm",
            "lonmin": -3.7283,
            "latmin": 37.09361,
            "lonmax": -3.71721,
            "latmax": 37.10522
        }, {
            "title": "La Mamola (Granada)",
            "type": "ttmm",
            "lonmin": -3.2831,
            "latmin": 36.74424,
            "lonmax": -3.27293,
            "latmax": 36.74927
        }, {
            "title": "La Peza (Granada)",
            "type": "ttmm",
            "lonmin": -3.28994,
            "latmin": 37.27325,
            "lonmax": -3.27938,
            "latmax": 37.2801
        }, {
            "title": "La Zubia (Granada)",
            "type": "ttmm",
            "lonmin": -3.59828,
            "latmin": 37.11069,
            "lonmax": -3.56728,
            "latmax": 37.12982
        }, {
            "title": "Lanjarón (Granada)",
            "type": "ttmm",
            "lonmin": -3.49413,
            "latmin": 36.91579,
            "lonmax": -3.47092,
            "latmax": 36.92224
        }, {
            "title": "Lanteira (Granada)",
            "type": "ttmm",
            "lonmin": -3.14091,
            "latmin": 37.16551,
            "lonmax": -3.13522,
            "latmax": 37.17382
        }, {
            "title": "Laroles (Granada)",
            "type": "ttmm",
            "lonmin": -3.01762,
            "latmin": 37.00654,
            "lonmax": -3.00933,
            "latmax": 37.0113
        }, {
            "title": "Lentegí (Granada)",
            "type": "ttmm",
            "lonmin": -3.67613,
            "latmin": 36.83267,
            "lonmax": -3.67221,
            "latmax": 36.83841
        }, {
            "title": "Lobras (Granada)",
            "type": "ttmm",
            "lonmin": -3.21356,
            "latmin": 36.92754,
            "lonmax": -3.21179,
            "latmax": 36.9304
        }, {
            "title": "Loja (Granada)",
            "type": "ttmm",
            "lonmin": -4.16544,
            "latmin": 37.16083,
            "lonmax": -4.13658,
            "latmax": 37.17802
        }, {
            "title": "Lugros (Granada)",
            "type": "ttmm",
            "lonmin": -3.2436,
            "latmin": 37.2276,
            "lonmax": -3.23883,
            "latmax": 37.23205
        }, {
            "title": "Maracena (Granada)",
            "type": "ttmm",
            "lonmin": -3.64818,
            "latmin": 37.20045,
            "lonmax": -3.62421,
            "latmax": 37.21641
        }, {
            "title": "Marchal (Granada)",
            "type": "ttmm",
            "lonmin": -3.20645,
            "latmin": 37.29505,
            "lonmax": -3.19927,
            "latmax": 37.29842
        }, {
            "title": "Mecina Bombarón (Granada)",
            "type": "ttmm",
            "lonmin": -3.16064,
            "latmin": 36.97915,
            "lonmax": -3.15331,
            "latmax": 36.98596
        }, {
            "title": "Moclín (Granada)",
            "type": "ttmm",
            "lonmin": -3.78864,
            "latmin": 37.33826,
            "lonmax": -3.78294,
            "latmax": 37.34195
        }, {
            "title": "Molvízar (Granada)",
            "type": "ttmm",
            "lonmin": -3.61483,
            "latmin": 36.78204,
            "lonmax": -3.60317,
            "latmax": 36.79027
        }, {
            "title": "Monachil (Granada)",
            "type": "ttmm",
            "lonmin": -3.54429,
            "latmin": 37.13004,
            "lonmax": -3.53411,
            "latmax": 37.13384
        }, {
            "title": "Montefrío (Granada)",
            "type": "ttmm",
            "lonmin": -4.01424,
            "latmin": 37.31831,
            "lonmax": -3.99861,
            "latmax": 37.32913
        }, {
            "title": "Montejícar (Granada)",
            "type": "ttmm",
            "lonmin": -3.50843,
            "latmin": 37.56747,
            "lonmax": -3.49656,
            "latmax": 37.57648
        }, {
            "title": "Montillana (Granada)",
            "type": "ttmm",
            "lonmin": -3.68122,
            "latmin": 37.49763,
            "lonmax": -3.66771,
            "latmax": 37.50647
        }, {
            "title": "Moraleda de Zafayona (Granada)",
            "type": "ttmm",
            "lonmin": -3.97024,
            "latmin": 37.16207,
            "lonmax": -3.95845,
            "latmax": 37.17694
        }, {
            "title": "Moreda (Granada)",
            "type": "ttmm",
            "lonmin": -3.33504,
            "latmin": 37.43586,
            "lonmax": -3.32675,
            "latmax": 37.44107
        }, {
            "title": "Motril (Granada)",
            "type": "ttmm",
            "lonmin": -3.53253,
            "latmin": 36.73531,
            "lonmax": -3.49328,
            "latmax": 36.75982
        }, {
            "title": "Murtas (Granada)",
            "type": "ttmm",
            "lonmin": -3.11134,
            "latmin": 36.88339,
            "lonmax": -3.1058,
            "latmax": 36.88957
        }, {
            "title": "Nigüelas (Granada)",
            "type": "ttmm",
            "lonmin": -3.5423,
            "latmin": 36.97604,
            "lonmax": -3.53468,
            "latmax": 36.98277
        }, {
            "title": "Nivar (Granada)",
            "type": "ttmm",
            "lonmin": -3.58108,
            "latmin": 37.25701,
            "lonmax": -3.57072,
            "latmax": 37.26736
        }, {
            "title": "Ogíjares (Granada)",
            "type": "ttmm",
            "lonmin": -3.62045,
            "latmin": 37.11068,
            "lonmax": -3.60029,
            "latmax": 37.12726
        }, {
            "title": "Orce (Granada)",
            "type": "ttmm",
            "lonmin": -2.48576,
            "latmin": 37.71545,
            "lonmax": -2.47426,
            "latmax": 37.72905
        }, {
            "title": "Otívar (Granada)",
            "type": "ttmm",
            "lonmin": -3.68273,
            "latmin": 36.81225,
            "lonmax": -3.67651,
            "latmax": 36.81825
        }, {
            "title": "Otura (Granada)",
            "type": "ttmm",
            "lonmin": -3.63959,
            "latmin": 37.08805,
            "lonmax": -3.63168,
            "latmax": 37.09915
        }, {
            "title": "Píñar (Granada)",
            "type": "ttmm",
            "lonmin": -3.44596,
            "latmin": 37.43933,
            "lonmax": -3.43504,
            "latmax": 37.44726
        }, {
            "title": "Pórtugos (Granada)",
            "type": "ttmm",
            "lonmin": -3.31329,
            "latmin": 36.94035,
            "lonmax": -3.30865,
            "latmax": 36.94312
        }, {
            "title": "Padul (Granada)",
            "type": "ttmm",
            "lonmin": -3.64091,
            "latmin": 37.0168,
            "lonmax": -3.61027,
            "latmax": 37.03335
        }, {
            "title": "Pampaneira (Granada)",
            "type": "ttmm",
            "lonmin": -3.36232,
            "latmin": 36.93806,
            "lonmax": -3.35876,
            "latmax": 36.94201
        }, {
            "title": "Pedro-Martínez (Granada)",
            "type": "ttmm",
            "lonmin": -3.23548,
            "latmin": 37.49802,
            "lonmax": -3.226,
            "latmax": 37.50704
        }, {
            "title": "Peligros (Granada)",
            "type": "ttmm",
            "lonmin": -3.63442,
            "latmin": 37.22695,
            "lonmax": -3.61845,
            "latmax": 37.23998
        }, {
            "title": "Pinos-Genil (Granada)",
            "type": "ttmm",
            "lonmin": -3.51111,
            "latmin": 37.16048,
            "lonmax": -3.49568,
            "latmax": 37.16513
        }, {
            "title": "Pinos-Puente (Granada)",
            "type": "ttmm",
            "lonmin": -3.76462,
            "latmin": 37.24587,
            "lonmax": -3.74163,
            "latmax": 37.26038
        }, {
            "title": "Pitres (Granada)",
            "type": "ttmm",
            "lonmin": -3.33019,
            "latmin": 36.93352,
            "lonmax": -3.32214,
            "latmax": 36.9385
        }, {
            "title": "Polícar (Granada)",
            "type": "ttmm",
            "lonmin": -3.2368,
            "latmin": 37.25573,
            "lonmax": -3.23056,
            "latmax": 37.26011
        }, {
            "title": "Puebla de Don Fadrique (Granada)",
            "type": "ttmm",
            "lonmin": -2.44226,
            "latmin": 37.95223,
            "lonmax": -2.42864,
            "latmax": 37.96359
        }, {
            "title": "Pulianas (Granada)",
            "type": "ttmm",
            "lonmin": -3.61217,
            "latmin": 37.2192,
            "lonmax": -3.60088,
            "latmax": 37.22858
        }, {
            "title": "Purchil (Granada)",
            "type": "ttmm",
            "lonmin": -3.67135,
            "latmin": 37.1681,
            "lonmax": -3.65754,
            "latmax": 37.17775
        }, {
            "title": "Purullena (Granada)",
            "type": "ttmm",
            "lonmin": -3.19663,
            "latmin": 37.31348,
            "lonmax": -3.18057,
            "latmax": 37.32113
        }, {
            "title": "Quéntar (Granada)",
            "type": "ttmm",
            "lonmin": -3.46954,
            "latmin": 37.19123,
            "lonmax": -3.46219,
            "latmax": 37.19516
        }, {
            "title": "Restabal (Granada)",
            "type": "ttmm",
            "lonmin": -3.58522,
            "latmin": 36.92727,
            "lonmax": -3.57855,
            "latmax": 36.93035
        }, {
            "title": "Rubite (Granada)",
            "type": "ttmm",
            "lonmin": -3.34957,
            "latmin": 36.80765,
            "lonmax": -3.34658,
            "latmax": 36.81044
        }, {
            "title": "Salar (Granada)",
            "type": "ttmm",
            "lonmin": -4.07314,
            "latmin": 37.14469,
            "lonmax": -4.06044,
            "latmax": 37.15563
        }, {
            "title": "Salobreña (Granada)",
            "type": "ttmm",
            "lonmin": -3.59216,
            "latmin": 36.73766,
            "lonmax": -3.57809,
            "latmax": 36.74909
        }, {
            "title": "Santa Cruz del Comercio (Granada)",
            "type": "ttmm",
            "lonmin": -3.97936,
            "latmin": 37.05896,
            "lonmax": -3.97156,
            "latmax": 37.06447
        }, {
            "title": "Santa Fe (Granada)",
            "type": "ttmm",
            "lonmin": -3.73011,
            "latmin": 37.18246,
            "lonmax": -3.70684,
            "latmax": 37.19407
        }, {
            "title": "Soportújar (Granada)",
            "type": "ttmm",
            "lonmin": -3.40712,
            "latmin": 36.92662,
            "lonmax": -3.40169,
            "latmax": 36.92955
        }, {
            "title": "Sorvilan (Granada)",
            "type": "ttmm",
            "lonmin": -3.2693,
            "latmin": 36.79325,
            "lonmax": -3.2643,
            "latmax": 36.79602
        }, {
            "title": "Talará (Lecrín) (Granada)",
            "type": "ttmm",
            "lonmin": -3.55527,
            "latmin": 36.94527,
            "lonmax": -3.54699,
            "latmax": 36.95137
        }, {
            "title": "Torre-Cardela (Granada)",
            "type": "ttmm",
            "lonmin": -3.35939,
            "latmin": 37.49999,
            "lonmax": -3.351,
            "latmax": 37.50977
        }, {
            "title": "Torvizcón (Granada)",
            "type": "ttmm",
            "lonmin": -3.30139,
            "latmin": 36.87636,
            "lonmax": -3.29667,
            "latmax": 36.8811
        }, {
            "title": "Trevélez (Granada)",
            "type": "ttmm",
            "lonmin": -3.2706,
            "latmin": 36.99716,
            "lonmax": -3.26221,
            "latmax": 37.00407
        }, {
            "title": "Turón (Granada)",
            "type": "ttmm",
            "lonmin": -3.059,
            "latmin": 36.86256,
            "lonmax": -3.05491,
            "latmax": 36.86615
        }, {
            "title": "Ugíjar (Granada)",
            "type": "ttmm",
            "lonmin": -3.05736,
            "latmin": 36.9593,
            "lonmax": -3.04761,
            "latmax": 36.96864
        }, {
            "title": "Válor (Granada)",
            "type": "ttmm",
            "lonmin": -3.08641,
            "latmin": 36.99283,
            "lonmax": -3.07836,
            "latmax": 36.99912
        }, {
            "title": "Vélez de Benaudalla (Granada)",
            "type": "ttmm",
            "lonmin": -3.51828,
            "latmin": 36.82874,
            "lonmax": -3.51049,
            "latmax": 36.8387
        }, {
            "title": "Víznar (Granada)",
            "type": "ttmm",
            "lonmin": -3.55813,
            "latmin": 37.22805,
            "lonmax": -3.54966,
            "latmax": 37.23599
        }, {
            "title": "Ventas de Huelma (Granada)",
            "type": "ttmm",
            "lonmin": -3.82405,
            "latmin": 37.06581,
            "lonmax": -3.81003,
            "latmax": 37.07344
        }, {
            "title": "Villanueva de las Torres (Granada)",
            "type": "ttmm",
            "lonmin": -3.09464,
            "latmin": 37.55506,
            "lonmax": -3.08643,
            "latmax": 37.56101
        }, {
            "title": "Villanueva Mesia (Granada)",
            "type": "ttmm",
            "lonmin": -4.01884,
            "latmin": 37.21254,
            "lonmax": -4.00565,
            "latmax": 37.21879
        }, {
            "title": "Zújar (Granada)",
            "type": "ttmm",
            "lonmin": -2.85578,
            "latmin": 37.53301,
            "lonmax": -2.83399,
            "latmax": 37.54619
        }, {
            "title": "Zafarraya (Granada)",
            "type": "ttmm",
            "lonmin": -4.15236,
            "latmin": 36.97134,
            "lonmax": -4.13954,
            "latmax": 36.97961
        }, {
            "title": "Zagra (Granada)",
            "type": "ttmm",
            "lonmin": -4.17439,
            "latmin": 37.24951,
            "lonmax": -4.16452,
            "latmax": 37.25935
        }, {
            "title": "Huelva (Huelva)",
            "type": "ttmm",
            "lonmin": -6.96277,
            "latmin": 37.24426,
            "lonmax": -6.91848,
            "latmax": 37.28563
        }, {
            "title": "Alájar (Huelva)",
            "type": "ttmm",
            "lonmin": -6.6692,
            "latmin": 37.87175,
            "lonmax": -6.65858,
            "latmax": 37.87746
        }, {
            "title": "Aljaraque (Huelva)",
            "type": "ttmm",
            "lonmin": -7.04154,
            "latmin": 37.26038,
            "lonmax": -7.01453,
            "latmax": 37.27414
        }, {
            "title": "Almonaster la Real (Huelva)",
            "type": "ttmm",
            "lonmin": -6.79489,
            "latmin": 37.86967,
            "lonmax": -6.78443,
            "latmax": 37.87741
        }, {
            "title": "Almonte (Huelva)",
            "type": "ttmm",
            "lonmin": -6.53048,
            "latmin": 37.2478,
            "lonmax": -6.50431,
            "latmax": 37.27098
        }, {
            "title": "Alosno (Huelva)",
            "type": "ttmm",
            "lonmin": -7.12244,
            "latmin": 37.54442,
            "lonmax": -7.10845,
            "latmax": 37.55246
        }, {
            "title": "Ampliación del P. I. El Lirio (Huelva)",
            "type": "ttmm",
            "lonmin": -6.54497,
            "latmin": 37.34843,
            "lonmax": -6.54197,
            "latmax": 37.35468
        }, {
            "title": "Aracena (Huelva)",
            "type": "ttmm",
            "lonmin": -6.58054,
            "latmin": 37.88462,
            "lonmax": -6.55534,
            "latmax": 37.89875
        }, {
            "title": "Aroche (Huelva)",
            "type": "ttmm",
            "lonmin": -6.96008,
            "latmin": 37.9397,
            "lonmax": -6.94684,
            "latmax": 37.94794
        }, {
            "title": "Arroyomolinos de León (Huelva)",
            "type": "ttmm",
            "lonmin": -6.4276,
            "latmin": 38.01765,
            "lonmax": -6.417,
            "latmax": 38.03123
        }, {
            "title": "Ayamonte (Huelva)",
            "type": "ttmm",
            "lonmin": -7.40964,
            "latmin": 37.20122,
            "lonmax": -7.39247,
            "latmax": 37.22931
        }, {
            "title": "Beas (Huelva)",
            "type": "ttmm",
            "lonmin": -6.80673,
            "latmin": 37.41807,
            "lonmax": -6.78582,
            "latmax": 37.43977
        }, {
            "title": "Berrocal (Huelva)",
            "type": "ttmm",
            "lonmin": -6.54364,
            "latmin": 37.60576,
            "lonmax": -6.54002,
            "latmax": 37.61077
        }, {
            "title": "Bollullos Par del Condado (Huelva)",
            "type": "ttmm",
            "lonmin": -6.55091,
            "latmin": 37.32922,
            "lonmax": -6.52884,
            "latmax": 37.35576
        }, {
            "title": "Bonares (Huelva)",
            "type": "ttmm",
            "lonmin": -6.68956,
            "latmin": 37.31583,
            "lonmax": -6.67344,
            "latmax": 37.32944
        }, {
            "title": "Cañaveral de León (Huelva)",
            "type": "ttmm",
            "lonmin": -6.53286,
            "latmin": 38.01131,
            "lonmax": -6.52412,
            "latmax": 38.01637
        }, {
            "title": "Cabezas Rubias (Huelva)",
            "type": "ttmm",
            "lonmin": -7.09176,
            "latmin": 37.7235,
            "lonmax": -7.08328,
            "latmax": 37.73051
        }, {
            "title": "Calañas (Huelva)",
            "type": "ttmm",
            "lonmin": -6.8836,
            "latmin": 37.64697,
            "lonmax": -6.87346,
            "latmax": 37.65853
        }, {
            "title": "Cala (Huelva)",
            "type": "ttmm",
            "lonmin": -6.32331,
            "latmin": 37.96654,
            "lonmax": -6.30674,
            "latmax": 37.97632
        }, {
            "title": "Campofrío (Huelva)",
            "type": "ttmm",
            "lonmin": -6.57954,
            "latmin": 37.76333,
            "lonmax": -6.57122,
            "latmax": 37.76911
        }, {
            "title": "Cartaya (Huelva)",
            "type": "ttmm",
            "lonmin": -7.16319,
            "latmin": 37.27291,
            "lonmax": -7.14161,
            "latmax": 37.29404
        }, {
            "title": "Castaño del Robledo (Huelva)",
            "type": "ttmm",
            "lonmin": -6.70855,
            "latmin": 37.89367,
            "lonmax": -6.70271,
            "latmax": 37.89754
        }, {
            "title": "Chucena (Huelva)",
            "type": "ttmm",
            "lonmin": -6.39895,
            "latmin": 37.35715,
            "lonmax": -6.38948,
            "latmax": 37.36818
        }, {
            "title": "Corteconcepción (Huelva)",
            "type": "ttmm",
            "lonmin": -6.51103,
            "latmin": 37.88972,
            "lonmax": -6.49726,
            "latmax": 37.89977
        }, {
            "title": "Cortegana (Huelva)",
            "type": "ttmm",
            "lonmin": -6.82782,
            "latmin": 37.90291,
            "lonmax": -6.81618,
            "latmax": 37.91746
        }, {
            "title": "Cortelazor (Huelva)",
            "type": "ttmm",
            "lonmin": -6.62705,
            "latmin": 37.93243,
            "lonmax": -6.62283,
            "latmax": 37.93762
        }, {
            "title": "Cumbres De Enmedio (Huelva)",
            "type": "ttmm",
            "lonmin": -6.69411,
            "latmin": 38.07169,
            "lonmax": -6.69095,
            "latmax": 38.07439
        }, {
            "title": "Cumbres De San Bartolomé (Huelva)",
            "type": "ttmm",
            "lonmin": -6.74745,
            "latmin": 38.07583,
            "lonmax": -6.73842,
            "latmax": 38.07962
        }, {
            "title": "Cumbres Mayores (Huelva)",
            "type": "ttmm",
            "lonmin": -6.64963,
            "latmin": 38.0571,
            "lonmax": -6.64059,
            "latmax": 38.06795
        }, {
            "title": "El Almendro (Huelva)",
            "type": "ttmm",
            "lonmin": -7.27264,
            "latmin": 37.50364,
            "lonmax": -7.26657,
            "latmax": 37.5111
        }, {
            "title": "El Campillo (Huelva)",
            "type": "ttmm",
            "lonmin": -6.63492,
            "latmin": 37.68918,
            "lonmax": -6.62429,
            "latmax": 37.69808
        }, {
            "title": "El Cerro de Andevalo (Huelva)",
            "type": "ttmm",
            "lonmin": -6.94578,
            "latmin": 37.73026,
            "lonmax": -6.93091,
            "latmax": 37.73708
        }, {
            "title": "El Granado (Huelva)",
            "type": "ttmm",
            "lonmin": -7.42116,
            "latmin": 37.51867,
            "lonmax": -7.41433,
            "latmax": 37.52362
        }, {
            "title": "Encinasola (Huelva)",
            "type": "ttmm",
            "lonmin": -6.87743,
            "latmin": 38.13246,
            "lonmax": -6.8652,
            "latmax": 38.14242
        }, {
            "title": "Escacena del Campo (Huelva)",
            "type": "ttmm",
            "lonmin": -6.39511,
            "latmin": 37.40261,
            "lonmax": -6.38385,
            "latmax": 37.4144
        }, {
            "title": "Fuenteheridos (Huelva)",
            "type": "ttmm",
            "lonmin": -6.66417,
            "latmin": 37.90001,
            "lonmax": -6.65881,
            "latmax": 37.90623
        }, {
            "title": "Galaroza (Huelva)",
            "type": "ttmm",
            "lonmin": -6.71562,
            "latmin": 37.92235,
            "lonmax": -6.70213,
            "latmax": 37.92978
        }, {
            "title": "Gibraleón (Huelva)",
            "type": "ttmm",
            "lonmin": -6.97657,
            "latmin": 37.36266,
            "lonmax": -6.95809,
            "latmax": 37.38315
        }, {
            "title": "Granada de Rio-Tinto (Huelva)",
            "type": "ttmm",
            "lonmin": -6.51076,
            "latmin": 37.76642,
            "lonmax": -6.50668,
            "latmax": 37.7707
        }, {
            "title": "Higuera de la Sierra (Huelva)",
            "type": "ttmm",
            "lonmin": -6.45254,
            "latmin": 37.83111,
            "lonmax": -6.44182,
            "latmax": 37.84091
        }, {
            "title": "Hinojales (Huelva)",
            "type": "ttmm",
            "lonmin": -6.59336,
            "latmin": 38.0053,
            "lonmax": -6.58422,
            "latmax": 38.00968
        }, {
            "title": "Hinojos (Huelva)",
            "type": "ttmm",
            "lonmin": -6.38791,
            "latmin": 37.28395,
            "lonmax": -6.37315,
            "latmax": 37.29632
        }, {
            "title": "Isla-Cristina (Huelva)",
            "type": "ttmm",
            "lonmin": -7.33266,
            "latmin": 37.19325,
            "lonmax": -7.30487,
            "latmax": 37.20686
        }, {
            "title": "Jabugo (Huelva)",
            "type": "ttmm",
            "lonmin": -6.73333,
            "latmin": 37.91051,
            "lonmax": -6.72335,
            "latmax": 37.92181
        }, {
            "title": "La Colada (Huelva)",
            "type": "ttmm",
            "lonmin": -7.09907,
            "latmin": 37.44176,
            "lonmax": -7.09415,
            "latmax": 37.44434
        }, {
            "title": "Lepe (Huelva)",
            "type": "ttmm",
            "lonmin": -7.21687,
            "latmin": 37.24331,
            "lonmax": -7.19276,
            "latmax": 37.26776
        }, {
            "title": "Linares de la Sierra (Huelva)",
            "type": "ttmm",
            "lonmin": -6.62315,
            "latmin": 37.87833,
            "lonmax": -6.61923,
            "latmax": 37.88154
        }, {
            "title": "Los Marines (Huelva)",
            "type": "ttmm",
            "lonmin": -6.62575,
            "latmin": 37.90032,
            "lonmax": -6.61829,
            "latmax": 37.90492
        }, {
            "title": "Lucena del Puerto (Huelva)",
            "type": "ttmm",
            "lonmin": -6.73522,
            "latmin": 37.30121,
            "lonmax": -6.72359,
            "latmax": 37.30961
        }, {
            "title": "Manzanilla (Huelva)",
            "type": "ttmm",
            "lonmin": -6.44206,
            "latmin": 37.38385,
            "lonmax": -6.41903,
            "latmax": 37.39414
        }, {
            "title": "Minas de Riotinto (Huelva)",
            "type": "ttmm",
            "lonmin": -6.60435,
            "latmin": 37.6882,
            "lonmax": -6.58547,
            "latmax": 37.69954
        }, {
            "title": "Moguer (Huelva)",
            "type": "ttmm",
            "lonmin": -6.84706,
            "latmin": 37.26889,
            "lonmax": -6.82778,
            "latmax": 37.283
        }, {
            "title": "Nava (Huelva)",
            "type": "ttmm",
            "lonmin": -6.74947,
            "latmin": 37.95996,
            "lonmax": -6.74303,
            "latmax": 37.96579
        }, {
            "title": "Nerva (Huelva)",
            "type": "ttmm",
            "lonmin": -6.55774,
            "latmin": 37.68632,
            "lonmax": -6.53794,
            "latmax": 37.70187
        }, {
            "title": "Niebla (Huelva)",
            "type": "ttmm",
            "lonmin": -6.6919,
            "latmin": 37.356,
            "lonmax": -6.67413,
            "latmax": 37.3698
        }, {
            "title": "Palma del Condado (Huelva)",
            "type": "ttmm",
            "lonmin": -6.56549,
            "latmin": 37.37861,
            "lonmax": -6.53815,
            "latmax": 37.39578
        },